{
"type": "FeatureCollection",
"crs": { "type": "name", "properties": { "name": "urn:ogc:def:crs:OGC:1.3:CRS84" } },
                                                                                
"features": [
{ "type": "Feature", "properties": { "POI_TYPE": "PCF", "POI_NAME": "AYER RAJAH", "POI_ADD": "Blk 48 Teban Gardens Rd #01-248", "POSTCODE": "600048", "XI": 17622.824, "YI": 33637.161, "ID": 1164975.0, "SZSCD": 8.0, "SZZCD": "JE", "DGPZ_CODE": 39.0, "DGPSZ_CODE": 3908.0, "REGION": 8.0, "DGPZ_NAME": "Jurong East", "DGPSZ_NAME": "Others" }, "geometry": { "type": "Point", "coordinates": [ 103.740074265985157, 1.320475295191426 ] } },
{ "type": "Feature", "properties": { "POI_TYPE": "Childcare", "POI_NAME": "THE CHILDREN LEARNING CENTRE PTE LTD", "POI_ADD": "9 INTERNATIONAL BUSINESS PARK, SINGAPORE 609915", "POSTCODE": "609915", "XI": 18760.459, "YI": 34118.967, "ID": 1164973.0, "SZSCD": 6.0, "SZZCD": "JE", "DGPZ_CODE": 39.0, "DGPSZ_CODE": 3906.0, "REGION": 8.0, "DGPZ_NAME": "Jurong East", "DGPSZ_NAME": "Teban Garden" }, "geometry": { "type": "Point", "coordinates": [ 103.750296354524068, 1.324832938433009 ] } },
{ "type": "Feature", "properties": { "POI_TYPE": "PCF", "POI_NAME": "BUKIT TIMAH", "POI_ADD": "Blk 208 Jurong East St 21 #01-189", "POSTCODE": "600208", "XI": 17908.41, "YI": 35625.652, "ID": 1164972.0, "SZSCD": 5.0, "SZZCD": "JE", "DGPZ_CODE": 39.0, "DGPSZ_CODE": 3905.0, "REGION": 8.0, "DGPZ_NAME": "Jurong East", "DGPSZ_NAME": "Others" }, "geometry": { "type": "Point", "coordinates": [ 103.742639746052092, 1.338458576502585 ] } },
{ "type": "Feature", "properties": { "POI_TYPE": "PCF", "POI_NAME": "YUHUA", "POI_ADD": "Blk 223A  Jurong East St 21 #01-851", "POSTCODE": "601223", "XI": 17238.77, "YI": 35948.218, "ID": 1164969.0, "SZSCD": 2.0, "SZZCD": "JE", "DGPZ_CODE": 39.0, "DGPSZ_CODE": 3902.0, "REGION": 8.0, "DGPZ_NAME": "Jurong East", "DGPSZ_NAME": "Others" }, "geometry": { "type": "Point", "coordinates": [ 103.736622530537588, 1.341375513406811 ] } },
{ "type": "Feature", "properties": { "POI_TYPE": "Childcare", "POI_NAME": "IYAD-PERDAUS CHILD DEVELOPMENT CENTRE", "POI_ADD": "Blk 241, JURONG EAST STREET 24, #01 - 659, SINGAPORE 600241", "POSTCODE": "600241", "XI": 17982.379, "YI": 35977.289, "ID": 1164969.0, "SZSCD": 2.0, "SZZCD": "JE", "DGPZ_CODE": 39.0, "DGPSZ_CODE": 3902.0, "REGION": 8.0, "DGPZ_NAME": "Jurong East", "DGPSZ_NAME": "Others" }, "geometry": { "type": "Point", "coordinates": [ 103.743304284079016, 1.341638677426892 ] } },
{ "type": "Feature", "properties": { "POI_TYPE": "Childcare", "POI_NAME": "GOLDEN-KIDS CHILD CARE & DEVELOPMENT CENTRE", "POI_ADD": "Blk 248, JURONG EAST ST 24, #01 - 72, SINGAPORE 600248", "POSTCODE": "600248", "XI": 17618.171, "YI": 36041.293, "ID": 1164969.0, "SZSCD": 2.0, "SZZCD": "JE", "DGPZ_CODE": 39.0, "DGPSZ_CODE": 3902.0, "REGION": 8.0, "DGPZ_NAME": "Jurong East", "DGPSZ_NAME": "Others" }, "geometry": { "type": "Point", "coordinates": [ 103.740031639071489, 1.342217382725478 ] } },
{ "type": "Feature", "properties": { "POI_TYPE": "PCF", "POI_NAME": "YUHUA", "POI_ADD": "Blk 251 Jurong East St 24 #01-110", "POSTCODE": "600251", "XI": 17542.424, "YI": 36131.268, "ID": 1164969.0, "SZSCD": 2.0, "SZZCD": "JE", "DGPZ_CODE": 39.0, "DGPSZ_CODE": 3902.0, "REGION": 8.0, "DGPZ_NAME": "Jurong East", "DGPSZ_NAME": "Others" }, "geometry": { "type": "Point", "coordinates": [ 103.739350976533842, 1.343031057349368 ] } },
{ "type": "Feature", "properties": { "POI_TYPE": "PCF", "POI_NAME": "BUKIT TIMAH", "POI_ADD": "Blk 285C Toh Guan Rd #01-92", "POSTCODE": "603285", "XI": 18349.749, "YI": 35562.826, "ID": 1164970.0, "SZSCD": 3.0, "SZZCD": "JE", "DGPZ_CODE": 39.0, "DGPSZ_CODE": 3903.0, "REGION": 8.0, "DGPZ_NAME": "Jurong East", "DGPSZ_NAME": "Yuhua" }, "geometry": { "type": "Point", "coordinates": [ 103.746605451689334, 1.337890545450293 ] } },
{ "type": "Feature", "properties": { "POI_TYPE": "Childcare", "POI_NAME": "ACE at WORK EDUCARE SERVICES", "POI_ADD": "Blk 288B, JURONG EAST STREET 21, #01 - 378, SINGAPORE 602288", "POSTCODE": "602288", "XI": 17921.253, "YI": 35699.744, "ID": 1164970.0, "SZSCD": 3.0, "SZZCD": "JE", "DGPZ_CODE": 39.0, "DGPSZ_CODE": 3903.0, "REGION": 8.0, "DGPZ_NAME": "Jurong East", "DGPSZ_NAME": "Yuhua" }, "geometry": { "type": "Point", "coordinates": [ 103.742755123224057, 1.339128641711277 ] } },
{ "type": "Feature", "properties": { "POI_TYPE": "PCF", "POI_NAME": "JURONG CENTRAL", "POI_ADD": "Blk 308 Jurong East St 32 #01-270", "POSTCODE": "600308", "XI": 16979.477, "YI": 36586.956, "ID": 1164968.0, "SZSCD": 1.0, "SZZCD": "JE", "DGPZ_CODE": 39.0, "DGPSZ_CODE": 3901.0, "REGION": 8.0, "DGPZ_NAME": "Jurong East", "DGPSZ_NAME": "Others" }, "geometry": { "type": "Point", "coordinates": [ 103.734292398361831, 1.347151930532757 ] } },
{ "type": "Feature", "properties": { "POI_TYPE": "Childcare", "POI_NAME": "GLORIOUS CHILDCARE & DEVELOPMENT CENTRE", "POI_ADD": "Blk 316, JURONG EAST ST 32, #01 - 289, SINGAPORE 600316", "POSTCODE": "600316", "XI": 16728.651, "YI": 36490.912, "ID": 1164968.0, "SZSCD": 1.0, "SZZCD": "JE", "DGPZ_CODE": 39.0, "DGPSZ_CODE": 3901.0, "REGION": 8.0, "DGPZ_NAME": "Jurong East", "DGPSZ_NAME": "Others" }, "geometry": { "type": "Point", "coordinates": [ 103.732038610604803, 1.346283250862289 ] } },
{ "type": "Feature", "properties": { "POI_TYPE": "PCF", "POI_NAME": "YUHUA", "POI_ADD": "Blk 317 Jurong East St 31 #01-14", "POSTCODE": "600317", "XI": 16639.333, "YI": 36556.157, "ID": 1164968.0, "SZSCD": 1.0, "SZZCD": "JE", "DGPZ_CODE": 39.0, "DGPSZ_CODE": 3901.0, "REGION": 8.0, "DGPZ_NAME": "Jurong East", "DGPSZ_NAME": "Others" }, "geometry": { "type": "Point", "coordinates": [ 103.731236010018037, 1.346873268827282 ] } },
{ "type": "Feature", "properties": { "POI_TYPE": "Childcare", "POI_NAME": "YWCA JURONG EAST CHILD DEVELOPMENT CENTRE", "POI_ADD": "Blk 324, JURONG EAST AVENUE 1, #01 - 130\/6, SINGAPORE 600324", "POSTCODE": "600324", "XI": 16501.777, "YI": 36770.978, "ID": 1164968.0, "SZSCD": 1.0, "SZZCD": "JE", "DGPZ_CODE": 39.0, "DGPSZ_CODE": 3901.0, "REGION": 8.0, "DGPZ_NAME": "Jurong East", "DGPSZ_NAME": "Others" }, "geometry": { "type": "Point", "coordinates": [ 103.72999990434657, 1.34881597798655 ] } },
{ "type": "Feature", "properties": { "POI_TYPE": "PCF", "POI_NAME": "JURONG CENTRAL", "POI_ADD": "Blk 337 Jurong East Ave 1 #01-1562", "POSTCODE": "600337", "XI": 16693.419, "YI": 36907.197, "ID": 1164968.0, "SZSCD": 1.0, "SZZCD": "JE", "DGPZ_CODE": 39.0, "DGPSZ_CODE": 3901.0, "REGION": 8.0, "DGPZ_NAME": "Jurong East", "DGPSZ_NAME": "Others" }, "geometry": { "type": "Point", "coordinates": [ 103.731721873781055, 1.350047965197529 ] } },
{ "type": "Feature", "properties": { "POI_TYPE": "PCF", "POI_NAME": "AYER RAJAH", "POI_ADD": "Blk 41 Teban Gardens Rd #01-352", "POSTCODE": "600041", "XI": 17725.11, "YI": 33762.508, "ID": 1164975.0, "SZSCD": 8.0, "SZZCD": "JE", "DGPZ_CODE": 39.0, "DGPSZ_CODE": 3908.0, "REGION": 8.0, "DGPZ_NAME": "Jurong East", "DGPSZ_NAME": "Others" }, "geometry": { "type": "Point", "coordinates": [ 103.740993316137533, 1.321608922193943 ] } },
{ "type": "Feature", "properties": { "POI_TYPE": "Kindergarten", "POI_NAME": "Al-Mukminin Mosque Kindergarten", "POI_ADD": "271 Jurong East St 21", "POSTCODE": "609603", "XI": 17777.039, "YI": 35709.627, "ID": 1164969.0, "SZSCD": 2.0, "SZZCD": "JE", "DGPZ_CODE": 39.0, "DGPSZ_CODE": 3902.0, "REGION": 8.0, "DGPZ_NAME": "Jurong East", "DGPSZ_NAME": "Others" }, "geometry": { "type": "Point", "coordinates": [ 103.741459273595382, 1.339217971411112 ] } },
{ "type": "Feature", "properties": { "POI_TYPE": "Childcare", "POI_NAME": "INTERNATIONAL BUSINESS PARK CHILD DEVELOPMENT CENTRE", "POI_ADD": "Blk 6, INTERNATIONAL BUSINESS PARK, #01 - 02, SINGAPORE 609918", "POSTCODE": "609918", "XI": 18435.004, "YI": 34384.467, "ID": 1164973.0, "SZSCD": 6.0, "SZZCD": "JE", "DGPZ_CODE": 39.0, "DGPSZ_CODE": 3906.0, "REGION": 8.0, "DGPZ_NAME": "Jurong East", "DGPSZ_NAME": "Teban Garden" }, "geometry": { "type": "Point", "coordinates": [ 103.747371886379725, 1.327233923401156 ] } },
{ "type": "Feature", "properties": { "POI_TYPE": "Kindergarten", "POI_NAME": "Seventh-Day Adventist Kindergarten", "POI_ADD": "90 Jurong East St 13", "POSTCODE": "609648", "XI": 17405.3, "YI": 35307.533, "ID": 1164969.0, "SZSCD": 2.0, "SZZCD": "JE", "DGPZ_CODE": 39.0, "DGPSZ_CODE": 3902.0, "REGION": 8.0, "DGPZ_NAME": "Jurong East", "DGPSZ_NAME": "Others" }, "geometry": { "type": "Point", "coordinates": [ 103.738119123651487, 1.335581452671017 ] } },
{ "type": "Feature", "properties": { "POI_TYPE": "Childcare", "POI_NAME": "COLUMBIA EARLY LEARNING CENTRE", "POI_ADD": "Blk 10, TOH GUAN ROAD, #06 - 03, SINGAPORE 608838", "POSTCODE": "608838", "XI": 18525.539, "YI": 34949.196, "ID": 1164970.0, "SZSCD": 3.0, "SZZCD": "JE", "DGPZ_CODE": 39.0, "DGPSZ_CODE": 3903.0, "REGION": 8.0, "DGPZ_NAME": "Jurong East", "DGPSZ_NAME": "Yuhua" }, "geometry": { "type": "Point", "coordinates": [ 103.748185216994372, 1.332341155125476 ] } },
{ "type": "Feature", "properties": { "POI_TYPE": "PCF", "POI_NAME": "YUHUA", "POI_ADD": "Blk 108 Jurong East St 13 #01-266", "POSTCODE": "600108", "XI": 17312.032, "YI": 35617.499, "ID": 1164969.0, "SZSCD": 2.0, "SZZCD": "JE", "DGPZ_CODE": 39.0, "DGPSZ_CODE": 3902.0, "REGION": 8.0, "DGPZ_NAME": "Jurong East", "DGPSZ_NAME": "Others" }, "geometry": { "type": "Point", "coordinates": [ 103.737280949025845, 1.33838463845916 ] } },
{ "type": "Feature", "properties": { "POI_TYPE": "Childcare", "POI_NAME": "BEARY HUG DAY CARE", "POI_ADD": "Blk 110, JURONG EAST STREET 13, #01 - 318, SINGAPORE 600110", "POSTCODE": "600110", "XI": 17264.587, "YI": 35677.121, "ID": 1164969.0, "SZSCD": 2.0, "SZZCD": "JE", "DGPZ_CODE": 39.0, "DGPSZ_CODE": 3902.0, "REGION": 8.0, "DGPZ_NAME": "Jurong East", "DGPSZ_NAME": "Others" }, "geometry": { "type": "Point", "coordinates": [ 103.736854607341897, 1.338923821065731 ] } },
{ "type": "Feature", "properties": { "POI_TYPE": "Childcare", "POI_NAME": "KINDERLAND CHILD CARE CENTRE", "POI_ADD": "Blk 135, JURONG EAST STREET 13, #03 - 341, SINGAPORE 600135", "POSTCODE": "600135", "XI": 17603.134, "YI": 35118.852, "ID": 1164972.0, "SZSCD": 5.0, "SZZCD": "JE", "DGPZ_CODE": 39.0, "DGPSZ_CODE": 3905.0, "REGION": 8.0, "DGPZ_NAME": "Jurong East", "DGPSZ_NAME": "Others" }, "geometry": { "type": "Point", "coordinates": [ 103.739896838395254, 1.333875159532017 ] } },
{ "type": "Feature", "properties": { "POI_TYPE": "Kindergarten", "POI_NAME": "Calvary Pandan Kindergarten", "POI_ADD": "201 Pandan Gardens", "POSTCODE": "609337", "XI": 18281.504, "YI": 33719.171, "ID": 1164975.0, "SZSCD": 8.0, "SZZCD": "JE", "DGPZ_CODE": 39.0, "DGPSZ_CODE": 3908.0, "REGION": 8.0, "DGPZ_NAME": "Jurong East", "DGPSZ_NAME": "Others" }, "geometry": { "type": "Point", "coordinates": [ 103.745992817036409, 1.321217180121904 ] } },
{ "type": "Feature", "properties": { "POI_TYPE": "Kindergarten", "POI_NAME": "Galilee Kindergarten", "POI_ADD": "202 Pandan Gardens", "POSTCODE": "609338", "XI": 18302.662, "YI": 33779.963, "ID": 1164975.0, "SZSCD": 8.0, "SZZCD": "JE", "DGPZ_CODE": 39.0, "DGPSZ_CODE": 3908.0, "REGION": 8.0, "DGPZ_NAME": "Jurong East", "DGPSZ_NAME": "Others" }, "geometry": { "type": "Point", "coordinates": [ 103.746182913406415, 1.321766967555992 ] } },
{ "type": "Feature", "properties": { "POI_TYPE": "Childcare", "POI_NAME": "CREATIVE O PRESCHOOLERS' BAY", "POI_ADD": "31, INTERNATIONAL BUSINESS PARK, #02 - 01, CREATIVE RESOURCE, SINGAPORE 609921", "POSTCODE": "609921", "XI": 18286.223, "YI": 34532.776, "ID": 1164973.0, "SZSCD": 6.0, "SZZCD": "JE", "DGPZ_CODE": 39.0, "DGPSZ_CODE": 3906.0, "REGION": 8.0, "DGPZ_NAME": "Jurong East", "DGPSZ_NAME": "Teban Garden" }, "geometry": { "type": "Point", "coordinates": [ 103.746034962133223, 1.328575128806615 ] } },
{ "type": "Feature", "properties": { "POI_TYPE": "Kindergarten", "POI_NAME": "Hasanah Mosque Kindergarten", "POI_ADD": "492 Teban Gardens", "POSTCODE": "608878", "XI": 17414.905, "YI": 33773.155, "ID": 1164975.0, "SZSCD": 8.0, "SZZCD": "JE", "DGPZ_CODE": 39.0, "DGPSZ_CODE": 3908.0, "REGION": 8.0, "DGPZ_NAME": "Jurong East", "DGPSZ_NAME": "Others" }, "geometry": { "type": "Point", "coordinates": [ 103.738205960776696, 1.321705103910222 ] } },
{ "type": "Feature", "properties": { "POI_TYPE": "Childcare", "POI_NAME": "NTUC CHILDCARE CO-OPERATIVE LTD", "POI_ADD": "Blk 209, JURONG EAST ST 21, #01 - 341, SINGAPORE 600209", "POSTCODE": "600209", "XI": 17666.717, "YI": 35570.503, "ID": 1164969.0, "SZSCD": 2.0, "SZZCD": "JE", "DGPZ_CODE": 39.0, "DGPSZ_CODE": 3902.0, "REGION": 8.0, "DGPZ_NAME": "Jurong East", "DGPSZ_NAME": "Others" }, "geometry": { "type": "Point", "coordinates": [ 103.740468013869773, 1.337959747385861 ] } },
{ "type": "Feature", "properties": { "POI_TYPE": "Childcare", "POI_NAME": "PCF Ayer Rajah Sparkletots Child Care Centre", "POI_ADD": "150A, PANDAN GARDENS ROAD, SINGAPORE 609342", "POSTCODE": "609342", "XI": 18464.351, "YI": 33729.174, "ID": 1164975.0, "SZSCD": 8.0, "SZZCD": "JE", "DGPZ_CODE": 39.0, "DGPSZ_CODE": 3908.0, "REGION": 8.0, "DGPZ_NAME": "Jurong East", "DGPSZ_NAME": "Others" }, "geometry": { "type": "Point", "coordinates": [ 103.747635788477908, 1.32130770119076 ] } },
{ "type": "Feature", "properties": { "POI_TYPE": "Childcare", "POI_NAME": "SAF CHILD DEVELOPMENT CENTRE - THE CHEVRONS", "POI_ADD": "48 BOON LAY WAY, #01 - 01, SINGAPORE 609961", "POSTCODE": "609961", "XI": 18593.349, "YI": 34796.352, "ID": 1164970.0, "SZSCD": 3.0, "SZZCD": "JE", "DGPZ_CODE": 39.0, "DGPSZ_CODE": 3903.0, "REGION": 8.0, "DGPZ_NAME": "Jurong East", "DGPSZ_NAME": "Yuhua" }, "geometry": { "type": "Point", "coordinates": [ 103.748794574637515, 1.3309589107679 ] } },
{ "type": "Feature", "properties": { "POI_TYPE": "Childcare", "POI_NAME": "PCF TWINKLE TOTS YUHUA CHILDCARE CENTRE", "POI_ADD": "Blk 233, JURONG EAST STREET 21, #01 - 410, SINGAPORE 600233", "POSTCODE": "600233", "XI": 17718.65, "YI": 35838.494, "ID": 1164969.0, "SZSCD": 2.0, "SZZCD": "JE", "DGPZ_CODE": 39.0, "DGPSZ_CODE": 3902.0, "REGION": 8.0, "DGPZ_NAME": "Jurong East", "DGPSZ_NAME": "Others" }, "geometry": { "type": "Point", "coordinates": [ 103.740934570950614, 1.340383377455485 ] } },
{ "type": "Feature", "properties": { "POI_TYPE": "Childcare", "POI_NAME": "PCF TWINKLE TOTS YUHUA CHILDCARE CENTRE", "POI_ADD": "Blk 264, JURONG EAST STREET 24, #01 - 523, SINGAPORE 600264", "POSTCODE": "600264", "XI": 17802.046, "YI": 36224.91, "ID": 1164969.0, "SZSCD": 2.0, "SZZCD": "JE", "DGPZ_CODE": 39.0, "DGPSZ_CODE": 3902.0, "REGION": 8.0, "DGPZ_NAME": "Jurong East", "DGPSZ_NAME": "Others" }, "geometry": { "type": "Point", "coordinates": [ 103.741683802578208, 1.343878010397139 ] } }
]
}
